[
    {
        "colectores": "DEBOUCK DG LOPEZ L ANGULO N & TORO O",
        "numero_accesión": 2901,
        "pais": "CLB",
        "departamento": "CAUCA",
        "municipio": "INZA",
        "especie": "P.vulgaria",
        "nombre_local": "comun",
        "lugar": "2 Km E Inza",
        "altitud": 1660,
        "longitud": "76.02W",
        "latitud": "02.33N"
    },
    {
        "colectores": "DEBOUCK DG LOPEZ L ANGULO N & TORO O",
        "numero_accesión": 2902,
        "pais": "CLB",
        "departamento": "CAUCA",
        "municipio": "PAEZ",
        "especie": "P. lunatus",
        "nombre_local": "cacha",
        "lugar": "1 Km S Guadualejo",
        "altitud": 1230,
        "longitud": "75.59W",
        "latitud": "02.32N"
    },
    {
        "colectores": "DEBOUCK DG LOPEZ L ANGULO N & TORO O",
        "numero_accesión": 2903,
        "pais": "CLB",
        "departamento": "CAUCA",
        "municipio": "PAEZ",
        "especie": "P. lunatus",
        "nombre_local": "cacha calentano",
        "lugar": "8 Km S Guadualejo, Birmania",
        "altitud": 1160,
        "longitud": "76.02W",
        "latitud": "02.32N"
    },
    {
        "colectores": "DEBOUCK DG LOPEZ L ANGULO N & TORO O",
        "numero_accesión": 2904,
        "pais": "CLB",
        "departamento": "CAUCA",
        "municipio": "INZA",
        "especie": "P. lunatus",
        "lugar": "0.6 Km SE Puerto Valencia",
        "altitud": 1135,
        "longitud": "75.58W",
        "latitud": "02.29N"
    },
    {
        "colectores": "DEBOUCK DG LOPEZ L ANGULO II & TORO O",
        "numero_accesión": 2905,
        "pais": "CLB",
        "departamento": "HUILA",
        "municipio": "LA PLATA",
        "especie": "P.vulgaris",
        "nombre_local": "chiquito",
        "lugar": "El Patico",
        "altitud": 1110,
        "longitud": "75.57W",
        "latitud": "02.29N"
    },
    {
        "colectores": "DEBOUCK DG LOPEZ L ANGULO N & TORO O",
        "numero_accesión": 2906,
        "pais": "CLB",
        "departamento": "HUILA",
        "municipio": "GARZON",
        "especie": "P. lunatus",
        "nombre_local": "frijol de año",
        "lugar": "10 Km SE Garzon, Quebraditas",
        "altitud": 1080,
        "longitud": "75.38W",
        "latitud": "02.08N"
    },
    {
        "colectores": "DEBOUCK DG LOPEZ L ANGULO N & TORO O",
        "numero_accesión": 2907,
        "pais": "CLB",
        "departamento": "HUILA",
        "municipio": "GARZON",
        "especie": "P.vulgaris",
        "nombre_local": "vagabundo, sinvergüenza",
        "lugar": "11 Km SE Garzon, Monserrate",
        "altitud": 1040,
        "longitud": "75.38W",
        "latitud": "02.08N"
    },
    {
        "colectores": "DEBOUCK DG LOPEZ L ANGULO N & TORO O",
        "numero_accesión": 2908,
        "pais": "CLB",
        "departamento": "HUILA",
        "municipio": "GARZON",
        "especie": "P. lunatus",
        "nombre_local": "haba",
        "lugar": "5 Km NE San Antonio, San Pedro",
        "altitud": 1230,
        "longitud": "75.39W",
        "latitud": "02.08N"
    },
    {
        "colectores": "DEBOUCK DG LOPEZ L ANGULO N & TORO O",
        "numero_accesión": 2909,
        "pais": "CLB",
        "departamento": "HUILA",
        "municipio": "SAN JOSE DE ISNOS",
        "especie": "P. lunatus",
        "nombre_local": "torta",
        "lugar": "2 Km SW Bordones, Bajo Planes",
        "altitud": 1690,
        "longitud": "76.12W",
        "latitud": "02.00N"
    },
    {
        "colectores": "DEBOUCK DG LOPEZ L ANGULO N & TORO O",
        "numero_accesión": 2910,
        "pais": "CLB",
        "departamento": "HUILA",
        "municipio": "SALADO BLANCO",
        "especie": "V. venusta",
        "lugar": "11 Km NE Salado Blanco, ET Cedro",
        "altitud": 1290,
        "longitud": "76.00W",
        "latitud": "02.02N"
    },
    {
        "colectores": "DEBOUCK DG LOPEZ L ANGULO N & TORO O",
        "numero_accesión": 2911,
        "pais": "CLB",
        "departamento": "HUILA",
        "municipio": "SAN JOSE DE ISNOS",
        "especie": "P. lunatus",
        "nombre_local": "torta",
        "lugar": "7 Km S San Jose de Isnos, Guaduales",
        "altitud": 1650,
        "longitud": "76.14W",
        "latitud": "01.54N"
    },
    {
        "colectores": "DEBOUCK DG LOPEZ L ANGULO N & TORO O",
        "numero_accesión": 2912,
        "pais": "CLB",
        "departamento": "HUILA",
        "municipio": "PITALITO",
        "especie": "P.polyanthus (hibrido)",
        "nombre_local": "cacha",
        "lugar": "31 Km SW Pitalito, Montecristo",
        "altitud": 1760,
        "longitud": "76.13W",
        "latitud": "01.45N"
    },
    {
        "colectores": "DEBOUCK DG LOPEZ L ANGULO N & TORO O",
        "numero_accesión": 2913,
        "pais": "CLB",
        "departamento": "HUILA",
        "municipio": "PITALITO",
        "especie": "P.vulgaris",
        "nombre_local": "frijol de jardin",
        "lugar": "23 Km SW Pitalito, Villa Fatima",
        "altitud": 1520,
        "longitud": "76.12W",
        "latitud": "1.40N"
    },
	{
        "colectores": "DEBOUCK DG LOPEZ L ANGULO N & TORO O",
        "numero_accesión": 2914,
        "pais": "CLB",
        "departamento": "HUILA",
        "municipio": "PITALITO",
        "especie": "P.vulgaris",
        "nombre_local": "frijol de tierra",
        "lugar": "23 Km SW Pitalito, Villa Fatima",
        "altitud": 1520,
        "longitud": "76.12W",
        "latitud": "01.4611N"
    },
    {
        "colectores": "DEBOUCK DG LOPEZ L ANGULO N & TORO O",
        "numero_accesión": 2915,
        "pais": "CLB",
        "departamento": "HUILA",
        "municipio": "ACEVEDO",
        "especie": "V.candida",
        "lugar": "6 Km NE Acevedo",
        "altitud": 1100,
        "longitud": "75.511W",
        "latitud": "01.5211N"
    },
    {
        "colectores": "DEBOUCK DG LOPEZ L ANGULO N & TORO O",
        "numero_accesión": 2916,
        "pais": "CLB",
        "departamento": "HUILA",
        "municipio": "GARZON",
        "especie": "V.candida",
        "lugar": "2 Km NE Garzon",
        "altitud": 890,
        "longitud": "75.36W",
        "latitud": "02.13N"
    },
    {
        "colectores": "DEBOUCK DG LOPEZ L ANGULO N & TORO O",
        "numero_accesión": 2917,
        "pais": "CLB",
        "departamento": "HUILA",
        "municipio": "GIGANTE",
        "especie": "V.venusta",
        "lugar": "1 Km NE Cachaya",
        "altitud": 1420,
        "longitud": "75.28W",
        "latitud": "02.2211N"
    },
    {
        "colectores": "DEBOUCK DG LOPEZ L ANGULO N & TORO O",
        "numero_accesión": 2918,
        "pais": "CLB",
        "departamento": "HUILA",
        "municipio": "ALGECIRAS",
        "especie": "V.adenantha",
        "lugar": "10 Km NE Algeciras, Bajo Rio Neiva",
        "altitud": 1210,
        "longitud": "75.15W",
        "latitud": "02.3411N"
    },
    {
        "colectores": "DEBOUCK DG LOPEZ L ANGULO N & TORO O",
        "numero_accesión": 2919,
        "pais": "CLB",
        "departamento": "HUILA",
        "municipio": "PALERMO",
        "especie": "V.candida",
        "lugar": "21 Km SW Palermo, ET Tablon",
        "altitud": 980,
        "longitud": "75.31W",
        "latitud": "02.4811N"
    },
    {
        "colectores": "DEBOUCK DG LOPEZ L ANGULO N & TORO O",
        "numero_accesión": 2920,
        "pais": "CLB",
        "departamento": "HUILA",
        "municipio": "PALERMO",
        "especie": "P. lunatus",
        "nombre_local": "potager",
        "lugar": "21 Km SW Palermo, El Tablon",
        "altitud": 1020,
        "longitud": "75.31W",
        "latitud": "02.48N"
    },
    {
        "colectores": "DEBOUCK DG LOPEZ L ANGULO N & TORO O",
        "numero_accesión": 2921,
        "pais": "CLB",
        "departamento": "HUILA",
        "municipio": "PALERMO",
        "especie": "P. lunatus",
        "nombre_local": "potager",
        "lugar": "22 Km SW Palermo, San Gerardo",
        "altitud": 1350,
        "longitud": "75.31W",
        "latitud": "02.481N"
    },
    {
        "colectores": "DEBOUCK DG LOPEZ L ANGULO N & TORO O",
        "numero_accesión": 2922,
        "pais": "CLB",
        "departamento": "HUILA",
        "municipio": "TERUEL",
        "especie": "P. lunatus",
        "nombre_local": "garbanzo",
        "lugar": "Teruel, Las Brisas",
        "altitud": 850,
        "longitud": "75.33W",
        "latitud": "02.44N"
    },
    {
        "colectores": "DEBOUCK DG LOPEZ L ANGULO N & TORO O",
        "numero_accesión": 2923,
        "pais": "CLB",
        "departamento": "HUILA",
        "municipio": "TESALIA",
        "especie": "P.vulgaris",
        "nombre_local": "frijol repelente, rochela",
        "lugar": "9 Km W Pacarni, El Palmito",
        "altitud": 1600,
        "longitud": "75.44W",
        "latitud": "02.37N"
    },
    {
        "colectores": "DEBOUCK DG LOPEZ L ANGULO N & TORO O",
        "numero_accesión": 2924,
        "pais": "CLB",
        "departamento": "HUILA",
        "municipio": "TELLO",
        "especie": "P. lunatus",
        "nombre_local": "potager",
        "lugar": "3 Km SE Sierra de La Canada",
        "altitud": 1145,
        "longitud": "75.04W",
        "latitud": "03.00N"
    },
    {
        "colectores": "DEBOUCK DG LOPEZ L ANGULO N & TORO O",
        "numero_accesión": 2925,
        "pais": "CLB",
        "departamento": "HUILA",
        "municipio": "TELLO",
        "especie": "V.vexillata",
        "lugar": "11 Km S Sierra del Gramal, Diamante",
        "altitud": 1030,
        "longitud": "75.04W",
        "latitud": "02.58N"
    },
    {
        "colectores": "DEBOUCK DG LOPEZ L ANGULO N & TORO O",
        "numero_accesión": 2926,
        "pais": "CLB",
        "departamento": "HUILA",
        "municipio": "TELLO",
        "especie": "V.candida",
        "lugar": "11 Km S Sierra del Gramal, Diamante",
        "altitud": 1000,
        "longitud": "75.04W",
        "latitud": "02.58N"
    },
    {
        "colectores": "DEBOUCK DG LOPEZ L ANGULO N & TORO O",
        "numero_accesión": 2927,
        "pais": "CLB",
        "departamento": "HUILA",
        "municipio": "NEIVA",
        "especie": "P.vulgaris",
        "nombre_local": "rocholas",
        "lugar": "10 Km E Vegalarga, ET Cedralito",
        "altitud": 1520,
        "longitud": "75.00W",
        "latitud": "02.551N"
    },
	{
        "colectores": "DEBOUCK DG LOPEZ L ANGULO N & TORO O",
        "numero_accesión": 2928,
        "pais": "CLB",
        "departamento": "HUILA",
        "municipio": "SANTA MARIA",
        "especie": "P.lunatus",
        "lugar": "7 Km H Puerto El Socorro, Las Delicias",
        "altitud": 1030,
        "longitud": "75.34W",
        "latitud": "02.57N"
    },
    {
        "colectores": "DEBOUCK DG LOPEZ L ANGULO N & TORO O",
        "numero_accesión": 2929,
        "pais": "CLB",
        "departamento": "HUILA",
        "municipio": "SANTA MARIA",
        "especie": "V. venusta",
        "lugar": "9 Km W Puerto El Socorro, La Esperanza",
        "altitud": 1030,
        "longitud": "75.34W",
        "latitud": "02.5718"
    },
    {
        "colectores": "DEBOUCK DG LOPEZ L ANGULO N & TORO O",
        "numero_accesión": 2930,
        "pais": "CLB",
        "departamento": "HUILA",
        "municipio": "SANTA MARIA",
        "especie": "V.candida",
        "lugar": "10 Km W Puerto El Socorro, La Esperanza",
        "altitud": 1200,
        "longitud": "75.34W",
        "latitud": "02.57N"
    },
    {
        "colectores": "DEBOUCK DG LOPEZ L ANGULO N & TORO O",
        "numero_accesión": 2931,
        "pais": "CLB",
        "departamento": "HUILA",
        "municipio": "SANTA MARIA",
        "especie": "P. lunatus",
        "lugar": "Santa Maria",
        "altitud": 1270,
        "longitud": "75.36W",
        "latitud": "02.56N"
    },
    {
        "colectores": "DEBOUCK DG LOPEZ L ANGULO N & TORO O",
        "numero_accesión": 2932,
        "pais": "CLB",
        "departamento": "HUILA",
        "municipio": "PALERMO",
        "especie": "P. lunatus",
        "lugar": "9 Km INE Paraguay, Versalles",
        "altitud": 1240,
        "longitud": "75.30W",
        "latitud": "03.0111"
    },
    {
        "colectores": "DEBOUCK DG LOPEZ L ANGULO N & TORO O",
        "numero_accesión": 2933,
        "pais": "CLB",
        "departamento": "HUILA",
        "municipio": "NEIVA",
        "especie": "P. lunatus",
        "nombre_local": "frijol de año",
        "lugar": "7 Km S San Luis, Corozal",
        "altitud": 1340,
        "longitud": "75.29W",
        "latitud": "03.0411"
    },
    {
        "colectores": "DEBOUCK DG LOPEZ L ANGULO N & TORO O",
        "numero_accesión": 2934,
        "pais": "CLB",
        "departamento": "HUILA",
        "municipio": "PALERMO",
        "especie": "P. lunatus",
        "lugar": "Paraguay, Aleluyas",
        "altitud": 1040,
        "longitud": "75.31W",
        "latitud": "03.00N"
    },
    {
        "colectores": "DEBOUCK DG LOPEZ L ANGULO N & TORO O",
        "numero_accesión": 2935,
        "pais": "CLB",
        "departamento": "TOLIMA",
        "municipio": "PLANADAS",
        "especie": "P. lunatus",
        "nombre_local": "cacha",
        "lugar": "5 Km N Gaitania, El Platanillo",
        "altitud": 1300,
        "longitud": "75.39W",
        "latitud": "03.13N"
    },
    {
        "colectores": "DEBOUCK DG LOPEZ L ANGULO N & TORO O",
        "numero_accesión": 2936,
        "pais": "CLB",
        "departamento": "TOLIMA",
        "municipio": "PLANADAS",
        "especie": "V.venusta",
        "lugar": "12 Km N Gaitania",
        "altitud": 1140,
        "longitud": "75.39W",
        "latitud": "03.13H"
    },
    {
        "colectores": "DEBOUCK DG LOPEZ L ANGULO N & TORO O",
        "numero_accesión": 2937,
        "pais": "CLB",
        "departamento": "TOLIMA",
        "municipio": "CHAPARRAL",
        "especie": "V.candida",
        "lugar": "13 Km NE Santiago Perez",
        "altitud": 640,
        "longitud": "75.34W",
        "latitud": "33.28N"
    },
    {
        "colectores": "DEBOUCK DG LOPEZ L ANGULO N & TORO O",
        "numero_accesión": 2938,
        "pais": "CLB",
        "departamento": "TOLIMA",
        "municipio": "CHAPARRAL",
        "especie": "P. lunatus",
        "lugar": "2 Km a Linday, 6 Km N El Limon",
        "altitud": 980,
        "longitud": "75.37W",
        "latitud": "03.41N"
    },
    {
        "colectores": "DEBOUCK DG LOPEZ L ANGULO N & TORO O",
        "numero_accesión": 2939,
        "pais": "CLB",
        "departamento": "TOLIMA",
        "municipio": "CHAPARRAL",
        "especie": "P. lunatus",
        "lugar": "2 Km S ET Limon",
        "altitud": 880,
        "longitud": "75.37W",
        "latitud": "03.38N"
    },
    {
        "colectores": "DEBOUCK DG LOPEZ L ANGULO N & TORO O",
        "numero_accesión": 2940,
        "pais": "CLB",
        "departamento": "TOLIMA",
        "municipio": "CHAPARRAL",
        "especie": "P. lunatus",
        "lugar": "2 Km S El Limon",
        "altitud": 900,
        "longitud": "75.37W",
        "latitud": "03.38N"
    },
    {
        "colectores": "DEBOUCK DG LOPEZ L ANGULO N & TORO O",
        "numero_accesión": 2941,
        "pais": "CLB",
        "departamento": "TOLIMA",
        "municipio": "CHAPARRAL",
        "especie": "P. lunatus",
        "lugar": "8 Km S El Limon, Barrialosa",
        "altitud": 1040,
        "longitud": "75.37W",
        "latitud": "03.37N"
    },
    {
        "colectores": "DEBOUCK DG LOPEZ L ANGULO N & TORO O",
        "numero_accesión": 2942,
        "pais": "CLB",
        "departamento": "TOLIMA",
        "estatus": "cult",
        "especie": "P.vulgaria",
        "nombre_local": "cejudo,cejudito",
        "municipio": "RIOBLANCO",
        "fuente": "champ cult",
        "fecha": "02/09/1990",
        "lugar": "10 Km S Rioblanco, Bocas de Anamichu",
        "altitud": 780,
        "longitud": "75.40W",
        "latitud": "03.30N"
    },
    {
        "colectores": "DEBOUCK DG LOPEZ L ANGULO N & TORO O",
        "numero_accesión": 2943,
        "pais": "CLB",
        "departamento": "TOLIMA",
        "estatus": "silv",
        "especie": "V.antillana",
        "municipio": "RIOBLANCO",
        "fuente": "veg. nat.",
        "fecha": "02/09/1990",
        "lugar": "3 Km SW Puerto Saldana",
        "altitud": 1050,
        "longitud": "75.44W",
        "latitud": "03.22N"
    },
    {
        "colectores": "DEBOUCK DG LOPEZ L ANGULO N & TORO O",
        "numero_accesión": 2944,
        "pais": "CLB",
        "departamento": "TOLIMA",
        "estatus": "silv",
        "especie": "V.venusta",
        "municipio": "RIOBLANCO",
        "fuente": "veg. nat.",
        "fecha": "02/09/1990",
        "lugar": "4 Km SH Puerto Saldana",
        "altitud": 1080,
        "longitud": "75.44M",
        "latitud": "03.22N"
    },
    {
        "colectores": "DEBOUCK DG LOPEZ L ANGULO N & TORO O",
        "numero_accesión": 2945,
        "pais": "CLB",
        "departamento": "TOLIMA",
        "estatus": "cult",
        "especie": "P. lunatus",
        "nombre_local": "frijol de año",
        "municipio": "RIOBLANCO",
        "fuente": "potager",
        "fecha": "02/09/1990",
        "lugar": "10 Km S Rioblanco, Bocas del Rioblanco",
        "altitud": 860,
        "longitud": "75.40M",
        "latitud": "03.30N"
    },
    {
        "colectores": "DEBOUCK DG LOPEZ L ANGULO N & TORO O",
        "numero_accesión": 2946,
        "pais": "CLB",
        "departamento": "TOLIMA",
        "estatus": "silv",
        "especie": "V.lasiocarpa",
        "municipio": "CHAPARRAL",
        "fuente": "veg. nat.",
        "fecha": "03/09/1990",
        "lugar": "17 Km S San Antonio",
        "altitud": 1040,
        "longitud": "75.32H",
        "latitud": "03.51N"
    },
    {
        "colectores": "DEBOUCK DG LOPEZ L ANGULO N & TORO O",
        "numero_accesión": 2947,
        "pais": "CLB",
        "departamento": "TOLIMA",
        "estatus": "silv",
        "especie": "V.candida",
        "municipio": "CHAPARRAL",
        "fuente": "veg. nat.",
        "fecha": "03/09/1990",
        "lugar": "14 Km a San Antonio",
        "altitud": 1000,
        "longitud": "75.32H",
        "latitud": "03.51N"
    },
    {
        "colectores": "DEBOUCK DG LOPEZ L ANGULO N & TORO O",
        "numero_accesión": 2948,
        "pais": "CLB",
        "departamento": "TOLIMA",
        "estatus": "silv",
        "especie": "Ciphomandra betaces",
        "municipio": "CHAPARRAL",
        "fuente": "veg. nat.",
        "fecha": "04/09/1980",
        "lugar": "13 Km NE Chaparral, Rio Tetuan",
        "altitud": 640,
        "longitud": "75.26W",
        "latitud": "03.45N"
    },
    {
        "colectores": "DEBOUCK DG LOPEZ L ANGULO N & TORO O",
        "numero_accesión": 2949,
        "pais": "CLB",
        "departamento": "TOLIMA",
        "estatus": "cult",
        "especie": "P. lunatus",
        "municipio": "CHAPARRAL",
        "fuente": "potager",
        "fecha": "04/09/1990",
        "lugar": "17 Km NE Chaparral, Rimalda",
        "altitud": 1580,
        "longitud": "75.25W",
        "latitud": "03.45N"
    },
    {
        "colectores": "DEBOUCK DG LOPEZ L ANGULO N & TORO O",
        "numero_accesión": 2950,
        "pais": "CLB",
        "departamento": "TOLIMA",
        "estatus": "cult",
        "especie": "P.vulgario",
        "nombre_local": "boca de sapo",
        "municipio": "CHAPARRAL",
        "fuente": "champ cult",
        "fecha": "04/09/1990",
        "lugar": "17 Km NE Chaparral, Rinalda",
        "altitud": 1700,
        "longitud": "75.25W",
        "latitud": "03.45N"
    },
    {
        "colectores": "DEBOUCK DG LOPEZ L ANGULO N & TORO O",
        "numero_accesión": 2951,
        "pais": "CLB",
        "departamento": "TOLIMA",
        "estatus": "cult",
        "especie": "P.vulgaria",
        "nombre_local": "revoltura",
        "municipio": "CHAPARRAL",
        "fuente": "champ cult",
        "fecha": "04/09/1990",
        "lugar": "17 Km NE Chaparral, Riealda",
        "altitud": 1700,
        "longitud": "75.25W",
        "latitud": "03.45M"
    },
    {
        "colectores": "DEBOUCK DG LOPEZ L ANGULO N & TORO O",
        "numero_accesión": 2952,
        "pais": "CLB",
        "departamento": "TOLIMA",
        "estatus": "cult",
        "especie": "P.vulgaria",
        "nombre_local": "revoltura",
        "municipio": "CHAPARRAL",
        "fuente": "champ cult",
        "fecha": "04/09/1990",
        "lugar": "17 Km NE Chaparral, Risalda",
        "altitud": 1700,
        "longitud": "75.25W",
        "latitud": "03.45N"
    },
    {
        "colectores": "DEBOUCK DG LOPEZ L ANGULO N & TORO O",
        "numero_accesión": 2953,
        "pais": "CLB",
        "departamento": "TOLIMA",
        "estatus": "cult",
        "especie": "P.vulgaria",
        "nombre_local": "revoltura",
        "municipio": "CHAPARRAL",
        "fuente": "champ cult",
        "fecha": "04/09/1990",
        "lugar": "17 Km NE Chaparral, Risalda",
        "altitud": 1700,
        "longitud": "75.25W",
        "latitud": "03.45N"
    },
    {
        "colectores": "DEBOUCK DG LOPEZ L ANGULO N & TORO O",
        "numero_accesión": 2954,
        "pais": "CLB",
        "departamento": "TOLIMA",
        "estatus": "cult",
        "especie": "P.vulgaris",
        "nombre_local": "revoltura",
        "municipio": "CHAPARRAL",
        "fuente": "champ cult",
        "fecha": "04/09/1990",
        "lugar": "17 Km NE Chaparral, Risalda",
        "altitud": 1700,
        "longitud": "75.25W",
        "latitud": "03.45N"
    },
    {
        "colectores": "DEBOUCK DG LOPEZ L ANGULO N & TORO O",
        "numero_accesión": 2955,
        "pais": "CLB",
        "departamento": "TOLIMA",
        "estatus": "cult",
        "especie": "P.vulgaris",
        "nombre_local": "revoltura",
        "municipio": "CHAPARRAL",
        "fuente": "champ cult",
        "fecha": "04/09/1990",
        "lugar": "17 Km NE Chaparral, Rigalda",
        "altitud": 1700,
        "longitud": "75.25W",
        "latitud": "03.45N"
    },
    {
        "colectores": "DEBOUCK 00 LOPEZ L ANGULO N & TORO o",
        "numero_accesión": 2956,
        "pais": "CLB",
        "departamento": "TOLIMA",
        "municipio": "CHAPARRAL",
        "especie": "P.vulgaris",
        "nombre_local": "revoltura",
        "lugar": "17 Km NE Chaparral, Risalda",
        "altitud": 1700,
        "longitud": "75.25W",
        "latitud": "03.45N"
    },
    {
        "colectores": "DEBOUCK DO LOPEZ L ANGULO II & TORO o",
        "numero_accesión": 2957,
        "pais": "CLB",
        "departamento": "TOLIMA",
        "municipio": "CHAPARRAL",
        "especie": "P.vulgaris",
        "nombre_local": "revoltura",
        "lugar": "17 Km HE Chaparral, Risalda",
        "altitud": 1700,
        "longitud": "75.25W",
        "latitud": "03.45N"
    },
    {
        "colectores": "DEBOUCK 00 LOPEZ L ANGULO \" & TORO o",
        "numero_accesión": 2958,
        "pais": "CLB",
        "departamento": "TOLIMA",
        "municipio": "CHAPARRAL",
        "especie": "P.vulgaria",
        "nombre_local": "revoltura",
        "lugar": "17 Km NE Chaparral, Risalda",
        "altitud": 1700,
        "longitud": "75.25M",
        "latitud": "03.45N"
    },
    {
        "colectores": "DEBOUCK DG LOPEZ L ANGULO N & TORO o",
        "numero_accesión": 2959,
        "pais": "CLB",
        "departamento": "TOLIMA",
        "municipio": "CHAPARRAL",
        "especie": "P.vulgaris",
        "nombre_local": "revoltura",
        "lugar": "17 Km NE Chaparral, Risalda",
        "altitud": 1700,
        "longitud": "75.25W",
        "latitud": "03.4511"
    },
    {
        "colectores": "DEBOUCK 00 LOPEZ L ANGULO N & TORO o",
        "numero_accesión": 2980,
        "pais": "CLB",
        "departamento": "TOLIMA",
        "municipio": "CHAPARRAL",
        "especie": "P.vulgarie",
        "nombre_local": "revoltura",
        "lugar": "17 Km NE Chaparral, Risalda",
        "altitud": 1700,
        "longitud": "75.25H",
        "latitud": "03.45N"
    },
    {
        "colectores": "DEBOUCK DO LOPEZ L ANGULO N & TORO o",
        "numero_accesión": 2961,
        "pais": "CLB",
        "departamento": "TOLIMA",
        "municipio": "CHAPARRAL",
        "especie": "P.vulgaris",
        "nombre_local": "revoltura",
        "lugar": "17 Km NE Chaparral, Risalda",
        "altitud": 1700,
        "longitud": "75.25W",
        "latitud": "03.45N"
    },
    {
        "colectores": "DEBOUCK 00 LOPEZ L ANGULO N & TORO o",
        "numero_accesión": 2962,
        "pais": "CLB",
        "departamento": "TOLIMA",
        "municipio": "CHAPARRAL",
        "especie": "P.vulgaris",
        "nombre_local": "culateno",
        "lugar": "17 Km NE Chaparral, Risalda",
        "altitud": 1700,
        "longitud": "75.25W",
        "latitud": "03.45N"
    },
    {
        "colectores": "DEBOUCK DO LOPEZ L ANGULO N & TORO o",
        "numero_accesión": 2963,
        "pais": "CLB",
        "departamento": "TOLIMA",
        "municipio": "CHAPARRAL",
        "especie": "P.vulgaria",
        "nombre_local": "vagabundo",
        "lugar": "17 Kim NE Chaparral, Rigalda",
        "altitud": 1700,
        "longitud": "75.25W",
        "latitud": "03.45N"
    },
    {
        "colectores": "DEBOUCK 00 LOPEZ L ANGULO N & TORO 0",
        "numero_accesión": 2964,
        "pais": "CLB",
        "departamento": "TOLIMA",
        "municipio": "CHAPARRAL",
        "especie": "P.vulgarie",
        "nombre_local": "huevo de pinche",
        "lugar": "17 Km NE Chaparral, Risalda",
        "altitud": 1700,
        "longitud": "75.25W",
        "latitud": "03.45N"
    },
    {
        "colectores": "DEBOUCK DO LOPEZ L ANGULO N & TORO 0",
        "numero_accesión": 2965,
        "pais": "CLB",
        "departamento": "TOLIMA",
        "municipio": "CHAPARRAL",
        "especie": "P.vulgaria",
        "nombre_local": "tempraneros",
        "lugar": "17 Km NE Chaparral, Rimalda",
        "altitud": 1700,
        "longitud": "75.45W",
        "latitud": "03.45N"
    },
    {
        "colectores": "DEBOUCK DG LOPEZ L ANGULO N & TORO o",
        "numero_accesión": 2966,
        "pais": "CLB",
        "departamento": "TOLIMA",
        "municipio": "CHAPARRAL",
        "especie": "P.vulgaria",
        "nombre_local": "revoltura",
        "lugar": "19 Kn NE Chaparral, Risalda",
        "altitud": 2120,
        "longitud": "75.25W",
        "latitud": "03.45N"
    },
    {
        "colectores": "DEBOUCK DO LOPEZ L ANGULO N & TORO o",
        "numero_accesión": 2967,
        "pais": "CLB",
        "departamento": "TOLIMA",
        "municipio": "CHAPARRAL",
        "especie": "P.vulgaris",
        "nombre_local": "revoltura",
        "lugar": "19 Kn NE Chaparral, Risalda",
        "altitud": 2120,
        "longitud": "75.25W",
        "latitud": "03.45N"
    },
    {
        "colectores": "DEBOUCK DG LOPEZ L ANGULO N & TORO 0",
        "numero_accesión": 2968,
        "pais": "CLB",
        "departamento": "TOLIMA",
        "municipio": "CHAPARRAL",
        "especie": "P.vulgaris",
        "nombre_local": "revoltura",
        "lugar": "19 Km NE Chaparral, Risalda",
        "altitud": 2120,
        "longitud": "75.25W",
        "latitud": "03.45N"
    },
    {
        "colectores": "DEBOUCK DG LOPEZ L ANGULO N & TORO 0",
        "numero_accesión": 2969,
        "pais": "CLB",
        "departamento": "TOLIMA",
        "municipio": "CHAPARRAL",
        "especie": "P.vulgaris",
        "nombre_local": "revoltura",
        "lugar": "19 Kn NE Chaparral, Risalda",
        "altitud": 2120,
        "longitud": "75.25W",
        "latitud": "03.45H"
    },
    {
        "colectores": "DEBOUCK DO LOPEZ L ANGULO II & TORO o",
        "numero_accesión": 2970,
        "pais": "CLB",
        "departamento": "TOLIMA",
        "estatus": "cult",
        "especie": "P.vulgaris",
        "nombre_local": "vagabundo",
        "municipio": "CHAPARRAL",
        "fuente": "champ cult",
        "fecha": "04/09/1990",
        "lugar": "19 Km NE Chaparral, Risalda",
        "altitud": 2120,
        "longitud": "75.25W",
        "latitud": "03.45N"
    },
    {
        "colectores": "DEBOUCK 00 LOPEZ L ANGULO N & TORO o",
        "numero_accesión": 2971,
        "pais": "CLB",
        "departamento": "TOLIMA",
        "estatus": "cult",
        "especie": "P.vulgaris",
        "nombre_local": "cejudo",
        "municipio": "CHAPARRAL",
        "fuente": "champ cult",
        "fecha": "04/09/1990",
        "lugar": "19 Km NE Chaparral, Risalda",
        "altitud": 2120,
        "longitud": "75.25W",
        "latitud": "03.45N"
    },
    {
        "colectores": "DEBOUCK 00 LOPEZ L ANGULO N & TORO o",
        "numero_accesión": 2972,
        "pais": "CLB",
        "departamento": "TOLIMA",
        "estatus": "cult",
        "especie": "P.vulgaris",
        "nombre_local": "balin",
        "municipio": "CHAPARRAL",
        "fuente": "champ cult",
        "fecha": "04/09/1990",
        "lugar": "19 Km NE Chaparral, Risalda",
        "altitud": 2120,
        "longitud": "75.25W",
        "latitud": "03.45N"
    },
    {
        "colectores": "DEBOUCK 00 LOPEZ L ANGULO N & TORO o",
        "numero_accesión": 2973,
        "pais": "CLB",
        "departamento": "TOLIMA",
        "estatus": "cult",
        "especie": "P.vulgaris",
        "nombre_local": "huevo de pinche",
        "municipio": "CHAPARRAL",
        "fuente": "champ cult",
        "fecha": "04/09/1990",
        "lugar": "19 Km NE Chaparral, Risalda",
        "altitud": 2120,
        "longitud": "75.25W",
        "latitud": "03.45N"
    },
    {
        "colectores": "DEBOUCK DO LOPEZ L ANGULO N & TORO o",
        "numero_accesión": 2974,
        "pais": "CLB",
        "departamento": "TOLIMA",
        "estatus": "cult",
        "especie": "P.vulgaris",
        "nombre_local": "chincheño",
        "municipio": "CHAPARRAL",
        "fuente": "champ cult",
        "fecha": "04/09/1990",
        "lugar": "19 Km NE Chaparral, Risalda",
        "altitud": 2120,
        "longitud": "75.25W",
        "latitud": "03.45N"
    },
    {
        "colectores": "DEBOUCK DO LOPEZ L ANGULO N & TORO o",
        "numero_accesión": 2975,
        "pais": "CLB",
        "departamento": "TOLIMA",
        "estatus": "cult",
        "especie": "P.polyanthus (hibrido)",
        "nombre_local": "cacha azul",
        "municipio": "CHAPARRAL",
        "fuente": "champ cult",
        "fecha": "04/09/1990",
        "lugar": "10 Km NE Chaparral, Risalda",
        "altitud": 2120,
        "longitud": "75.25W",
        "latitud": "03.45N"
    },
    {
        "colectores": "DEBOUCK DG LOPEZ L ANGULO N & TORO o",
        "numero_accesión": 2976,
        "pais": "CLB",
        "departamento": "TOLIMA",
        "estatus": "cult",
        "especie": "P.vulgaris",
        "nombre_local": "table roja",
        "municipio": "SAN ANTONIO",
        "fuente": "champ cult",
        "fecha": "05/09/1990",
        "lugar": "Villa Hermona, Villa Hernoss",
        "altitud": 1840,
        "longitud": "75.28W",
        "latitud": "04.00N"
    },
    {
        "colectores": "DEBOUCK DG LOPEZ L ANGULO N & TORO o",
        "numero_accesión": 2977,
        "pais": "CLB",
        "departamento": "TOLIMA",
        "estatus": "cult",
        "especie": "P.vulgaris",
        "nombre_local": "pintado",
        "municipio": "SAN ANTONIO",
        "fuente": "champ cult",
        "fecha": "05/09/1990",
        "lugar": "Villa Hernosa, Villa Hernosa",
        "altitud": 1840,
        "longitud": "75.28W",
        "latitud": "04.00N"
    },
    {
        "colectores": "DEBOUCK DO LOPEZ L ANGULO N & TORO o",
        "numero_accesión": 2978,
        "pais": "CLB",
        "departamento": "TOLIMA",
        "estatus": "cult",
        "especie": "P.vulgaris",
        "municipio": "SAN ANTONIO",
        "fuente": "champ cult",
        "fecha": "05/09/1990",
        "lugar": "Villa Hernona, Villa Hermosa",
        "altitud": 1840,
        "longitud": "75.28W",
        "latitud": "04.00N"
    },
    {
        "colectores": "DEBOUCK DG LOPEZ L ANGULO N & TORO o",
        "numero_accesión": 2979,
        "pais": "CLB",
        "departamento": "TOLIMA",
        "estatus": "silv",
        "especie": "V.antillana",
        "municipio": "SAN ANTONIO",
        "fuente": "veg. nat.",
        "fecha": "05/09/1990",
        "lugar": "5 Km N Villa Hermosa, Zanja Honda",
        "altitud": 1650,
        "longitud": "75.28W",
        "latitud": "04.01N"
    },
    {
        "colectores": "DEBOUCK DO LOPEZ L ANGULO N & TORO o",
        "numero_accesión": 2980,
        "pais": "CLB",
        "departamento": "TOLIMA",
        "estatus": "cult",
        "especie": "P.vulgaris",
        "nombre_local": "caregato,pielroja",
        "municipio": "SAN ANTONIO",
        "fuente": "champ cult",
        "fecha": "05/09/1990",
        "lugar": "Altos de Playa Rica",
        "altitud": 1200,
        "longitud": "75.27W",
        "latitud": "04.04N"
    },
    {
        "colectores": "DEBOUCK DO LOPEZ L ANGULO N & TORO o",
        "numero_accesión": 2981,
        "pais": "CLB",
        "departamento": "CUNDINAMARCA",
        "estatus": "ail ly",
        "especie": "P.vulgaris",
        "nombre_local": "garrapato,t",
        "municipio": "TENA",
        "fuente": "veg. nat.",
        "fecha": "06/09/1990",
        "lugar": "3 Km E Tena, E1 Rogario",
        "altitud": 1500,
        "longitud": "74.22W",
        "latitud": "04.38N"
    },
    {
        "colectores": "DEBOUCK 00 LOPEZ L ANGULO N & TORO o",
        "numero_accesión": 2982,
        "pais": "CLB",
        "departamento": "CUNDINAMARCA",
        "estatus": "sily",
        "especie": "V.venusta",
        "municipio": "TENA",
        "fuente": "veg. nat.",
        "fecha": "08/09/1990",
        "lugar": "3 Km E Tena, E1 Rosario",
        "altitud": 1500,
        "longitud": "74.22W",
        "latitud": "04.38N"
    },
    {
        "colectores": "DEBOUCK DG LOPEZ L ANGULO N & TORO o",
        "numero_accesión": 2983,
        "pais": "CLB",
        "departamento": "CUNDINAMARCA",
        "estatus": "silv",
        "especie": "P.vulgaris",
        "nombre_local": "garrapato,t",
        "municipio": "TENA",
        "fuente": "veg. nat.",
        "fecha": "06/09/1990",
        "lugar": "3 Km E Tena, E1 Rosario",
        "altitud": 1530,
        "longitud": "74.22W",
        "latitud": "04.38N"
    },
    {
        "colectores": "DEBOUCK DO LOPEZ L ANGULO II & TORO o",
        "numero_accesión": 2984,
        "pais": "CLB",
        "departamento": "CUNDIHANARCA",
        "estatus": "cult",
        "especie": "P.vulgaris",
        "nombre_local": "champ",
        "municipio": "TENA",
        "fuente": "cult",
        "fecha": "06/09/1990",
        "lugar": "3 Km E Tena, ET Rogario",
        "altitud": 1540,
        "longitud": "74.22W",
        "latitud": "04.38N"
    },
    {
        "colectores": "DEBOUCK DG LOPEZ L ANGULO N & TORO o",
        "numero_accesión": 2985,
        "pais": "CLB",
        "departamento": "CUNDINANARCA",
        "estatus": "silv",
        "especie": "P.vulgaris",
        "nombre_local": "garrapato,t",
        "municipio": "TENA",
        "fuente": "veg. nat",
        "fecha": "08/09/1990",
        "lugar": "3 Km NE Tena, El Rosario",
        "altitud": 1550,
        "longitud": "74.22W",
        "latitud": "04.38N"
    },
    {
        "colectores": "DEBOUCK DG LOPEZ L ANGULO II & TORO o",
        "numero_accesión": 2986,
        "pais": "CLB",
        "departamento": "CUNDINAMARCA",
        "estatus": "cult",
        "especie": "P. lunatus",
        "nombre_local": "machete.table",
        "municipio": "LA MESA",
        "fuente": "potager",
        "fecha": "06/09/1990",
        "lugar": "1 Km NE La Mesa, Payacal",
        "altitud": 1580,
        "longitud": "74.27W",
        "latitud": "04.41N"
    },
    {
        "colectores": "DEBOUCK DO LOPEZ L ANGULO N & TORO o",
        "numero_accesión": 2987,
        "pais": "CLB",
        "departamento": "CUNDINAMARCA",
        "estatus": "cult",
        "especie": "P. lunatus",
        "nombre_local": "machete",
        "municipio": "LA MESA",
        "fuente": "potagor",
        "fecha": "06/09/1990",
        "lugar": "2 Km NE La Mesa, Payacal",
        "altitud": 1650,
        "longitud": "74.27W",
        "latitud": "04.41N"
    },
    {
        "colectores": "DEBOUCK DG LOPEZ L ANGULO N & TORO o",
        "numero_accesión": 2988,
        "pais": "CLB",
        "departamento": "CUNDIHAMARCA",
        "estatus": "cult",
        "especie": "P.polyanthus (hibrido)",
        "nombre_local": "cacha.toda la vida",
        "municipio": "SAN ANTONIO TEQUENDAMA",
        "fuente": "potager",
        "fecha": "06/09/1990",
        "lugar": "1 Km NE Planta El Salto, Cucio",
        "altitud": 1950,
        "longitud": "74.21M",
        "latitud": "04.39N"
    },
    {
        "colectores": "DEBOUCK DO LOPEZ L ANGULO N & TORO o",
        "numero_accesión": 2989,
        "pais": "CLB",
        "departamento": "CUNDINAMARCA",
        "estatus": "cult",
        "especie": "P. lunatus",
        "nombre_local": "machete",
        "municipio": "SAN ANTONIO TEQUENDAMA",
        "fuente": "potager",
        "fecha": "06/09/1990",
        "lugar": "4 Km SW Santandercito, Santivar",
        "altitud": 1330,
        "longitud": "74.22W",
        "latitud": "04.35N"
    },
    {
        "colectores": "D.G. Debouck, L. Lopez J., N.F. Angulo & O. Toro",
        "numero_accesión": 2946,
        "pais": "COLOMBIA",
        "departamento": "TOLIMA",
        "municipio": "Chaparral",
        "especie": "Vigna Lasiocarpa (Bentham) Verdcourt",
        "nombre_local": "desconocido",
        "lugar": "17 Km S San Antonio",
        "altitud": 1040,
        "longitud": "75.32W",
        "latitud": "03.51N",
        "fecha": "14/X/1990",
        "observaciones": "en matorrales modificados y quemados convirtiendose en potreros. Antiguo bosque tropical subhumedo con Inga, Moraceae, Gynerium, Mimosoideae, Compositae, Centrosema, Rhynchosia. Soleado, abierto. Escaso y localizado. Suelo organico pedregoso humedo derivado andesita. En vainas verdes, entrando madurez. Flor amarilla. Volubles 2 m alto."
    },
    {
        "colectores": "D.G. Debouck, L. Lopez J., N.F. Angulo & O. Toro Ch.",
        "numero_accesión": 2947,
        "pais": "COLOMBIA",
        "departamento": "TOLIMA",
        "municipio": "Chaparral",
        "especie": "Vigna candida (Veltozo) Marechal, Mascherpa & Stainier",
        "nombre_local": "desconocido",
        "lugar": "14 Km S San Antonio",
        "altitud": 1000,
        "longitud": "75.32W",
        "latitud": "03.51N",
        "fecha": "14/X/1990",
        "observaciones": "partes restantes del bosque tropical subhumedo con Sapotaceae, Cesalpinoideae, Araceae, Moraceae (Cecropia), Galactia, Solanum, Lantana. Soleado abierto. Abundante y Localizado. En floración-vainas verdes (flor lila azul auy claro). Voluble 3-4 m alto. Perene 2-3 anos. Suelo pardo franco organico derivado andesitas."
	}
]